{
  "id": 3,
  "title": "נארה — הצבאים והבודהה",
  "idea": "עיר עתיקה, צבאים חופשיים, עומק בשקט",
  "spots": {
    "morning": [
      {
        "name": "פארק נארה + צבאים",
        "nameEn": "Nara Park",
        "addr": "Nara Park, Nara",
        "lat": 34.6851,
        "lng": 135.843,
        "time": "09:30",
        "duration": "1.5 שעות",
        "price": 0,
        "forWho": "כולם",
        "notes": "1,300 צבאים חצי-פראיים. קניית שנבייה (עוגיות צבאים) ב-200 ין",
        "placeId": "",
        "image": "https://upload.wikimedia.org/wikipedia/commons/thumb/b/b4/Nara_Park_-_panoramio_%282%29.jpg/500px-Nara_Park_-_panoramio_%282%29.jpg"
      },
      {
        "name": "מקדש טודאי-ג׳י",
        "nameEn": "Todai-ji Temple",
        "addr": "406-1 Zoshicho, Nara",
        "lat": 34.6891,
        "lng": 135.8399,
        "time": "11:00",
        "duration": "1.5 שעות",
        "price": 600,
        "forWho": "ענת, עילאי",
        "notes": "בודהה הברונזה הגדול בעולם (15 מ׳). מבנה העץ הגדול בעולם",
        "placeId": "",
        "image": "https://upload.wikimedia.org/wikipedia/commons/thumb/2/2f/T%C5%8Ddai-ji_Kon-d%C5%8D.jpg/500px-T%C5%8Ddai-ji_Kon-d%C5%8D.jpg"
      }
    ],
    "afternoon": [
      {
        "name": "נאראמאצ׳י",
        "nameEn": "Naramachi",
        "addr": "Naramachi, Nara",
        "lat": 34.6785,
        "lng": 135.833,
        "time": "13:00",
        "duration": "2 שעות",
        "price": 0,
        "forWho": "לוטם, נתן",
        "notes": "סמטאות מסורתיות, חנויות נייר יפני, מוצ׳י טרי, בתי תה",
        "placeId": ""
      },
      {
        "name": "מקדש קאסוגה טאישה",
        "nameEn": "Kasuga Taisha",
        "addr": "160 Kasuganocho, Nara",
        "lat": 34.681,
        "lng": 135.8497,
        "time": "15:30",
        "duration": "1 שעה",
        "price": 500,
        "forWho": "ענת",
        "notes": "3,000 פנסי אבן ומתכת לאורך השביל ביער",
        "placeId": "",
        "image": "https://upload.wikimedia.org/wikipedia/commons/thumb/0/0d/Kasuga-taisha11bs3200.jpg/500px-Kasuga-taisha11bs3200.jpg"
      }
    ],
    "evening": [
      {
        "name": "חזרה לאוסקה — ערב חופשי",
        "nameEn": "Free evening Osaka",
        "addr": "Namba, Osaka",
        "lat": 34.6659,
        "lng": 135.5013,
        "time": "18:00",
        "duration": "",
        "price": "",
        "forWho": "כולם",
        "notes": "",
        "placeId": ""
      }
    ]
  },
  "meals": {
    "breakfast": "במלון",
    "lunch": "מוצ׳י ודנגו בנאראמאצ׳י",
    "dinner": "חופשי באוסקה",
    "icecream": ""
  },
  "transport": {
    "segments": [
      {
        "id": "d3-s1",
        "from": {
          "name": "מלון &Here OSAKA NAMBA",
          "nameEn": "&Here OSAKA NAMBA",
          "lat": 34.6632,
          "lng": 135.5045
        },
        "to": {
          "name": "פארק נארה + צבאים",
          "nameEn": "Nara Park",
          "lat": 34.6851,
          "lng": 135.843
        },
        "mode": "train",
        "details": {
          "walkToStation": 10,
          "rideTime": 54,
          "transfers": 0,
          "cost": null,
          "currency": "JPY"
        },
        "totalMinutes": 64,
        "distanceKm": 40.4,
        "mapsUrl": "https://www.google.com/maps/dir/?api=1&hl=he&origin=34.6632,135.5045&destination=34.6851,135.843&travelmode=transit"
      },
      {
        "id": "d3-s2",
        "from": {
          "name": "פארק נארה + צבאים",
          "nameEn": "Nara Park",
          "lat": 34.6851,
          "lng": 135.843
        },
        "to": {
          "name": "מקדש טודאי-ג׳י",
          "nameEn": "Todai-ji Temple",
          "lat": 34.6891,
          "lng": 135.8399
        },
        "mode": "walk",
        "details": {
          "walkToStation": 0,
          "rideTime": 9,
          "transfers": 0,
          "cost": null,
          "currency": "JPY"
        },
        "totalMinutes": 9,
        "distanceKm": 0.7,
        "mapsUrl": "https://www.google.com/maps/dir/?api=1&hl=he&origin=34.6851,135.843&destination=34.6891,135.8399&travelmode=walking"
      },
      {
        "id": "d3-s3",
        "from": {
          "name": "מקדש טודאי-ג׳י",
          "nameEn": "Todai-ji Temple",
          "lat": 34.6891,
          "lng": 135.8399
        },
        "to": {
          "name": "נאראמאצ׳י",
          "nameEn": "Naramachi",
          "lat": 34.6785,
          "lng": 135.833
        },
        "mode": "metro",
        "details": {
          "walkToStation": 8,
          "rideTime": 3,
          "transfers": 0,
          "cost": null,
          "currency": "JPY"
        },
        "totalMinutes": 11,
        "distanceKm": 1.7,
        "mapsUrl": "https://www.google.com/maps/dir/?api=1&hl=he&origin=34.6891,135.8399&destination=34.6785,135.833&travelmode=transit"
      },
      {
        "id": "d3-s4",
        "from": {
          "name": "נאראמאצ׳י",
          "nameEn": "Naramachi",
          "lat": 34.6785,
          "lng": 135.833
        },
        "to": {
          "name": "מקדש קאסוגה טאישה",
          "nameEn": "Kasuga Taisha",
          "lat": 34.681,
          "lng": 135.8497
        },
        "mode": "metro",
        "details": {
          "walkToStation": 8,
          "rideTime": 4,
          "transfers": 0,
          "cost": null,
          "currency": "JPY"
        },
        "totalMinutes": 12,
        "distanceKm": 2,
        "mapsUrl": "https://www.google.com/maps/dir/?api=1&hl=he&origin=34.6785,135.833&destination=34.681,135.8497&travelmode=transit"
      },
      {
        "id": "d3-s5",
        "from": {
          "name": "מקדש קאסוגה טאישה",
          "nameEn": "Kasuga Taisha",
          "lat": 34.681,
          "lng": 135.8497
        },
        "to": {
          "name": "חזרה לאוסקה — ערב חופשי",
          "nameEn": "Free evening Osaka",
          "lat": 34.6659,
          "lng": 135.5013
        },
        "mode": "train",
        "details": {
          "walkToStation": 10,
          "rideTime": 55,
          "transfers": 0,
          "cost": null,
          "currency": "JPY"
        },
        "totalMinutes": 65,
        "distanceKm": 41.5,
        "mapsUrl": "https://www.google.com/maps/dir/?api=1&hl=he&origin=34.681,135.8497&destination=34.6659,135.5013&travelmode=transit"
      },
      {
        "id": "d3-s6",
        "from": {
          "name": "חזרה לאוסקה — ערב חופשי",
          "nameEn": "Free evening Osaka",
          "lat": 34.6659,
          "lng": 135.5013
        },
        "to": {
          "name": "מלון &Here OSAKA NAMBA",
          "nameEn": "&Here OSAKA NAMBA",
          "lat": 34.6632,
          "lng": 135.5045
        },
        "mode": "walk",
        "details": {
          "walkToStation": 0,
          "rideTime": 7,
          "transfers": 0,
          "cost": null,
          "currency": "JPY"
        },
        "totalMinutes": 7,
        "distanceKm": 0.5,
        "mapsUrl": "https://www.google.com/maps/dir/?api=1&hl=he&origin=34.6659,135.5013&destination=34.6632,135.5045&travelmode=walking"
      }
    ],
    "summary": {
      "totalTransitMinutes": 152,
      "totalWalkingMinutes": 16,
      "totalDistanceKm": 86.8,
      "modes": [
        "train",
        "walk",
        "metro"
      ]
    }
  },
  "notes": "יום מצוין לנתן — קצב שקט, עומק. 45 דקות רכבת מאוסקה"
}
