{
  "id": 19,
  "title": "אוטארו — תעלות וזכוכית",
  "idea": "עיר תעלות, סושי, מלאכת יד",
  "spots": {
    "morning": [
      {
        "name": "Farm Tomita",
        "nameEn": "Farm Tomita",
        "addr": "15 Kisenkita, Nakafurano, Hokkaido",
        "lat": 43.4182,
        "lng": 142.428,
        "time": "09:30",
        "duration": "2 שעות",
        "price": 0,
        "forWho": "כולם, לוטם",
        "notes": "שדות לבנדר אייקוניים. השדות האחוריים פחות עמוסים. גלידת לבנדר",
        "placeId": "",
        "image": "https://upload.wikimedia.org/wikipedia/commons/thumb/7/79/%E3%83%95%E3%82%A1%E3%83%BC%E3%83%A0%E5%AF%8C%E7%94%B0%EF%BC%88Farm_Tomita%EF%BC%89_-_panoramio_%282%29.jpg/500px-%E3%83%95%E3%82%A1%E3%83%BC%E3%83%A0%E5%AF%8C%E7%94%B0%EF%BC%88Farm_Tomita%EF%BC%89_-_panoramio_%282%29.jpg"
      }
    ],
    "afternoon": [
      {
        "name": "Ningle Terrace",
        "nameEn": "Ningle Terrace",
        "addr": "New Furano Prince Hotel, Furano",
        "lat": 43.339,
        "lng": 142.383,
        "time": "13:00",
        "duration": "1.5 שעות",
        "price": 0,
        "forWho": "לוטם, ענת",
        "notes": "15 בקתות עץ ביער — מלאכת יד, נרות, זכוכית, עור",
        "placeId": ""
      },
      {
        "name": "Furano Cheese Factory",
        "nameEn": "Furano Cheese Factory",
        "addr": "Nakago, Furano",
        "lat": 43.3602,
        "lng": 142.3872,
        "time": "15:00",
        "duration": "1 שעה",
        "price": 0,
        "forWho": "נתן, לוטם",
        "notes": "טעימות גבינה, סדנת גלידה, חנות",
        "placeId": "",
        "image": "https://upload.wikimedia.org/wikipedia/commons/thumb/1/16/Mother_and_Child_with_Cow_Statue_-_Cheese_Factory_-_Furano_-_Hokkaido_-_Japan_%2848012302622%29.jpg/500px-Mother_and_Child_with_Cow_Statue_-_Cheese_Factory_-_Furano_-_Hokkaido_-_Japan_%2848012302622%29.jpg"
      }
    ],
    "evening": [
      {
        "name": "תעלת אוטארו בלילה",
        "nameEn": "Otaru Canal at night",
        "addr": "Ironai, Otaru, Hokkaido",
        "lat": 43.198,
        "lng": 140.9946,
        "time": "19:00",
        "duration": "1.5 שעות",
        "price": 0,
        "forWho": "כולם",
        "notes": "תעלה היסטורית עם פנסי גז מוארים בערב — אווירה רומנטית. מחסני לבנים משופצים לאורך המים",
        "placeId": ""
      }
    ]
  },
  "meals": {
    "breakfast": "במלון",
    "lunch": "Farm Tomita — מלון לבנדר, קארי",
    "dinner": "אוטארו — סושי / פירות ים",
    "icecream": "גלידת לבנדר — Farm Tomita (חובה)"
  },
  "transport": {
    "segments": [
      {
        "id": "d19-s1",
        "from": {
          "name": "מלון Hotel Nord Otaru",
          "nameEn": "Hotel Nord Otaru",
          "lat": 43.1994,
          "lng": 141.0013
        },
        "to": {
          "name": "Farm Tomita",
          "nameEn": "Farm Tomita",
          "lat": 43.4182,
          "lng": 142.428
        },
        "mode": "car",
        "details": {
          "walkToStation": 0,
          "rideTime": 181,
          "transfers": 0,
          "cost": null,
          "currency": "JPY"
        },
        "totalMinutes": 181,
        "distanceKm": 135.7,
        "mapsUrl": "https://www.google.com/maps/dir/?api=1&hl=he&origin=43.1994,141.0013&destination=43.4182,142.428&travelmode=driving"
      },
      {
        "id": "d19-s2",
        "from": {
          "name": "Farm Tomita",
          "nameEn": "Farm Tomita",
          "lat": 43.4182,
          "lng": 142.428
        },
        "to": {
          "name": "Ningle Terrace",
          "nameEn": "Ningle Terrace",
          "lat": 43.339,
          "lng": 142.383
        },
        "mode": "car",
        "details": {
          "walkToStation": 0,
          "rideTime": 15,
          "transfers": 0,
          "cost": null,
          "currency": "JPY"
        },
        "totalMinutes": 15,
        "distanceKm": 11,
        "mapsUrl": "https://www.google.com/maps/dir/?api=1&hl=he&origin=43.4182,142.428&destination=43.339,142.383&travelmode=driving"
      },
      {
        "id": "d19-s3",
        "from": {
          "name": "Ningle Terrace",
          "nameEn": "Ningle Terrace",
          "lat": 43.339,
          "lng": 142.383
        },
        "to": {
          "name": "Furano Cheese Factory",
          "nameEn": "Furano Cheese Factory",
          "lat": 43.3602,
          "lng": 142.3872
        },
        "mode": "car",
        "details": {
          "walkToStation": 0,
          "rideTime": 4,
          "transfers": 0,
          "cost": null,
          "currency": "JPY"
        },
        "totalMinutes": 4,
        "distanceKm": 2.7,
        "mapsUrl": "https://www.google.com/maps/dir/?api=1&hl=he&origin=43.339,142.383&destination=43.3602,142.3872&travelmode=driving"
      },
      {
        "id": "d19-s4",
        "from": {
          "name": "Furano Cheese Factory",
          "nameEn": "Furano Cheese Factory",
          "lat": 43.3602,
          "lng": 142.3872
        },
        "to": {
          "name": "מלון Hotel Nord Otaru",
          "nameEn": "Hotel Nord Otaru",
          "lat": 43.1994,
          "lng": 141.0013
        },
        "mode": "car",
        "details": {
          "walkToStation": 0,
          "rideTime": 174,
          "transfers": 0,
          "cost": null,
          "currency": "JPY"
        },
        "totalMinutes": 174,
        "distanceKm": 130.7,
        "mapsUrl": "https://www.google.com/maps/dir/?api=1&hl=he&origin=43.3602,142.3872&destination=43.1994,141.0013&travelmode=driving"
      }
    ],
    "summary": {
      "totalTransitMinutes": 374,
      "totalWalkingMinutes": 0,
      "totalDistanceKm": 280.1,
      "modes": [
        "car"
      ]
    }
  },
  "notes": "שיא פריחת הלבנדר ביולי-אוגוסט",
  "hotelId": 12,
  "hotelName": "Hotel Nord Otaru",
  "city": "אוטארו"
}