{
  "id": 9,
  "title": "קנאזאווה — העיר שלא הופצצה",
  "idea": "עיר שמוראי שלמה, אדריכלות עכשווית",
  "spots": {
    "morning": [
      {
        "name": "מוזיאון 21 לאמנות עכשווית",
        "nameEn": "21st Century Museum of Contemporary Art",
        "addr": "1-2-1 Hirosaka, Kanazawa",
        "lat": 36.5607,
        "lng": 136.6586,
        "time": "10:00",
        "duration": "1.5 שעות",
        "price": 450,
        "forWho": "ענת, לוטם",
        "notes": "SANAA (סג׳ימה + נישיזאווה). מבנה עגול שקוף. בריכת לנדר. חינם בחלק מהגלריות",
        "placeId": ""
      },
      {
        "name": "גן קנרוקואן",
        "nameEn": "Kenrokuen Garden",
        "addr": "1 Kenrokumachi, Kanazawa",
        "lat": 36.5624,
        "lng": 136.6624,
        "time": "11:30",
        "duration": "1.5 שעות",
        "price": 320,
        "forWho": "ענת, נתן",
        "notes": "אחד מ-3 הגנים היפים ביפן. בריכות, גשרים, עצי אורן מעוצבים",
        "placeId": "",
        "image": "https://upload.wikimedia.org/wikipedia/commons/thumb/3/31/Stone_lantern_Kenrokuen.jpg/500px-Stone_lantern_Kenrokuen.jpg"
      }
    ],
    "afternoon": [
      {
        "name": "מוזיאון ד.ט. סוזוקי",
        "nameEn": "D.T. Suzuki Museum",
        "addr": "3-4-20 Honda-machi, Kanazawa",
        "lat": 36.5548,
        "lng": 136.665,
        "time": "13:15",
        "duration": "45 דק'",
        "price": 310,
        "forWho": "ענת, עילאי",
        "notes": "מוזיאון מינימליסטי לזכר סוזוקי — הפילוסוף שהביא את הזן למערב. אדריכלות טאניגוצ'י: 'חדר המים' עם בריכת השתקפות למדיטציה. מרחב זן טהור. סגור בימי שני. 5 דק' הליכה מקנרוקואן",
        "placeId": "",
        "image": "https://upload.wikimedia.org/wikipedia/commons/thumb/0/01/D._T._Suzuki_Museum%2C_Kanazawa_-_May_3%2C_2015_%281%29.jpg/500px-D._T._Suzuki_Museum%2C_Kanazawa_-_May_3%2C_2015_%281%29.jpg"
      },
      {
        "name": "רובע הסמוראי נאגאמאצ׳י",
        "nameEn": "Nagamachi Samurai District",
        "addr": "Nagamachi, Kanazawa",
        "lat": 36.5632,
        "lng": 136.6518,
        "time": "14:00",
        "duration": "1 שעה",
        "price": 0,
        "forWho": "ענת, נתן",
        "notes": "קירות אדמה, תעלות, בית נומורה (כניסה 550 ין)",
        "placeId": ""
      },
      {
        "name": "שוק אומיצ׳ו",
        "nameEn": "Omicho Market",
        "addr": "50 Kamiomicho, Kanazawa",
        "lat": 36.5721,
        "lng": 136.6571,
        "time": "15:30",
        "duration": "1 שעה",
        "price": 0,
        "forWho": "נתן",
        "notes": "סושי טרי, פירות ים, ירקות מקומיים",
        "placeId": ""
      },
      {
        "name": "רובע היגאשי צ׳איה",
        "nameEn": "Higashi Chaya District",
        "addr": "Higashiyama, Kanazawa",
        "lat": 36.5737,
        "lng": 136.6654,
        "time": "17:00",
        "duration": "1 שעה",
        "price": 0,
        "forWho": "לוטם, ענת",
        "notes": "רובע גיישות עם בתי תה, זהב. פחות תיירותי מגיון",
        "placeId": ""
      }
    ],
    "evening": [
      {
        "name": "ערב בקנאזאווה",
        "nameEn": "Kanazawa evening",
        "addr": "Katamachi, Kanazawa",
        "lat": 36.561,
        "lng": 136.654,
        "time": "19:00",
        "duration": "",
        "price": "",
        "forWho": "כולם",
        "notes": "",
        "placeId": ""
      }
    ]
  },
  "meals": {
    "breakfast": "במלון קיוטו (אחרון)",
    "lunch": "סושי בשוק אומיצ׳ו",
    "dinner": "קנאזאווה — קאיסקי",
    "icecream": "גלידת זהב — Hakuichi"
  },
  "transport": {
    "segments": [
      {
        "id": "d9-s1",
        "from": {
          "name": "מלון Hotel Nikko Kanazawa",
          "nameEn": "Hotel Nikko Kanazawa",
          "lat": 36.5763,
          "lng": 136.6494
        },
        "to": {
          "name": "מוזיאון 21 לאמנות עכשווית",
          "nameEn": "21st Century Museum of Contemporary Art",
          "lat": 36.5607,
          "lng": 136.6586
        },
        "mode": "metro",
        "details": {
          "walkToStation": 8,
          "rideTime": 5,
          "transfers": 0,
          "cost": null,
          "currency": "JPY"
        },
        "totalMinutes": 13,
        "distanceKm": 2.5,
        "mapsUrl": "https://www.google.com/maps/dir/?api=1&hl=he&origin=36.5763,136.6494&destination=36.5607,136.6586&travelmode=transit"
      },
      {
        "id": "d9-s2",
        "from": {
          "name": "מוזיאון 21 לאמנות עכשווית",
          "nameEn": "21st Century Museum of Contemporary Art",
          "lat": 36.5607,
          "lng": 136.6586
        },
        "to": {
          "name": "גן קנרוקואן",
          "nameEn": "Kenrokuen Garden",
          "lat": 36.5624,
          "lng": 136.6624
        },
        "mode": "walk",
        "details": {
          "walkToStation": 0,
          "rideTime": 7,
          "transfers": 0,
          "cost": null,
          "currency": "JPY"
        },
        "totalMinutes": 7,
        "distanceKm": 0.5,
        "mapsUrl": "https://www.google.com/maps/dir/?api=1&hl=he&origin=36.5607,136.6586&destination=36.5624,136.6624&travelmode=walking"
      },
      {
        "id": "d9-s3",
        "from": {
          "name": "גן קנרוקואן",
          "nameEn": "Kenrokuen Garden",
          "lat": 36.5624,
          "lng": 136.6624
        },
        "to": {
          "name": "מוזיאון ד.ט. סוזוקי",
          "nameEn": "D.T. Suzuki Museum",
          "lat": 36.5548,
          "lng": 136.665
        },
        "mode": "walk",
        "details": {
          "walkToStation": 0,
          "rideTime": 9,
          "transfers": 0,
          "cost": null,
          "currency": "JPY"
        },
        "totalMinutes": 9,
        "distanceKm": 0.6,
        "mapsUrl": "https://www.google.com/maps/dir/?api=1&hl=he&origin=36.5624,136.6624&destination=36.5548,136.665&travelmode=walking"
      },
      {
        "id": "d9-s3b",
        "from": {
          "name": "מוזיאון ד.ט. סוזוקי",
          "nameEn": "D.T. Suzuki Museum",
          "lat": 36.5548,
          "lng": 136.665
        },
        "to": {
          "name": "רובע הסמוראי נאגאמאצ׳י",
          "nameEn": "Nagamachi Samurai District",
          "lat": 36.5632,
          "lng": 136.6518
        },
        "mode": "metro",
        "details": {
          "walkToStation": 8,
          "rideTime": 4,
          "transfers": 0,
          "cost": null,
          "currency": "JPY"
        },
        "totalMinutes": 12,
        "distanceKm": 1.6,
        "mapsUrl": "https://www.google.com/maps/dir/?api=1&hl=he&origin=36.5548,136.665&destination=36.5632,136.6518&travelmode=transit"
      },
      {
        "id": "d9-s4",
        "from": {
          "name": "רובע הסמוראי נאגאמאצ׳י",
          "nameEn": "Nagamachi Samurai District",
          "lat": 36.5632,
          "lng": 136.6518
        },
        "to": {
          "name": "שוק אומיצ׳ו",
          "nameEn": "Omicho Market",
          "lat": 36.5721,
          "lng": 136.6571
        },
        "mode": "metro",
        "details": {
          "walkToStation": 8,
          "rideTime": 3,
          "transfers": 0,
          "cost": null,
          "currency": "JPY"
        },
        "totalMinutes": 11,
        "distanceKm": 1.4,
        "mapsUrl": "https://www.google.com/maps/dir/?api=1&hl=he&origin=36.5632,136.6518&destination=36.5721,136.6571&travelmode=transit"
      },
      {
        "id": "d9-s5",
        "from": {
          "name": "שוק אומיצ׳ו",
          "nameEn": "Omicho Market",
          "lat": 36.5721,
          "lng": 136.6571
        },
        "to": {
          "name": "רובע היגאשי צ׳איה",
          "nameEn": "Higashi Chaya District",
          "lat": 36.5737,
          "lng": 136.6654
        },
        "mode": "walk",
        "details": {
          "walkToStation": 0,
          "rideTime": 13,
          "transfers": 0,
          "cost": null,
          "currency": "JPY"
        },
        "totalMinutes": 13,
        "distanceKm": 1,
        "mapsUrl": "https://www.google.com/maps/dir/?api=1&hl=he&origin=36.5721,136.6571&destination=36.5737,136.6654&travelmode=walking"
      },
      {
        "id": "d9-s6",
        "from": {
          "name": "רובע היגאשי צ׳איה",
          "nameEn": "Higashi Chaya District",
          "lat": 36.5737,
          "lng": 136.6654
        },
        "to": {
          "name": "ערב בקנאזאווה",
          "nameEn": "Kanazawa evening",
          "lat": 36.561,
          "lng": 136.654
        },
        "mode": "metro",
        "details": {
          "walkToStation": 8,
          "rideTime": 5,
          "transfers": 0,
          "cost": null,
          "currency": "JPY"
        },
        "totalMinutes": 13,
        "distanceKm": 2.3,
        "mapsUrl": "https://www.google.com/maps/dir/?api=1&hl=he&origin=36.5737,136.6654&destination=36.561,136.654&travelmode=transit"
      },
      {
        "id": "d9-s7",
        "from": {
          "name": "ערב בקנאזאווה",
          "nameEn": "Kanazawa evening",
          "lat": 36.561,
          "lng": 136.654
        },
        "to": {
          "name": "מלון Hotel Nikko Kanazawa",
          "nameEn": "Hotel Nikko Kanazawa",
          "lat": 36.5763,
          "lng": 136.6494
        },
        "mode": "metro",
        "details": {
          "walkToStation": 8,
          "rideTime": 5,
          "transfers": 0,
          "cost": null,
          "currency": "JPY"
        },
        "totalMinutes": 13,
        "distanceKm": 2.3,
        "mapsUrl": "https://www.google.com/maps/dir/?api=1&hl=he&origin=36.561,136.654&destination=36.5763,136.6494&travelmode=transit"
      }
    ],
    "summary": {
      "totalTransitMinutes": 64,
      "totalWalkingMinutes": 29,
      "totalDistanceKm": 12.4,
      "modes": [
        "metro",
        "walk"
      ]
    }
  },
  "notes": "Takkyubin מקיוטו. רכבת Thunderbird/Hokuriku Shinkansen"
}
