[
  {"lat":34.6938,"lng":135.5023,"nameHe":"ספריית הילדים, נקנושימה","nameEn":"Nakanoshima Children's Book Forest","architect":"Tadao Ando","archGroup":"ando","year":2020,"region":"kansai","day":2,"desc":"ספרייה על נהר, תפוח ירוק, תרבות ילדים שנבנתה בעיר אוסקה","address":"1-1-28 Nakanoshima, Kita-ku, Osaka","hours":"09:30–17:00, סגור ביום שני","price":"חינם"},
  {"lat":34.8106,"lng":135.5694,"nameHe":"כנסיית האור","nameEn":"Church of the Light","architect":"Tadao Ando","archGroup":"ando","year":1989,"region":"kansai","day":2,"desc":"צלב אור בקיר בטון — מהאייקונים של אנדו. איברקי.","address":"4-3-50 Kitakasuga, Ibaraki, Osaka","hours":"בתיאום מראש בלבד","price":"תרומה"},
  {"lat":34.5053,"lng":135.5567,"nameHe":"מוזיאון סאיאמאיקה","nameEn":"Sayamaike Museum","architect":"Tadao Ando","archGroup":"ando","year":2001,"region":"kansai","day":8,"desc":"מוזיאון מים על קירות מים נופלים ובטון חשוף","address":"2 Ikejirinaka, Osakasayama, Osaka","hours":"10:00–17:00","price":"חינם"},
  {"lat":34.9839,"lng":135.7123,"nameHe":"וילת קאצורה","nameEn":"Katsura Imperial Villa","architect":"מסורתי, המאה ה-17","archGroup":"other","year":1645,"region":"kansai","day":5,"desc":"שיא האדריכלות היפנית המסורתית — השפיעה על מודרניזם עולמי","address":"Katsuramisono, Nishikyo-ku, Kyoto","hours":"בתיאום מראש, 3 חודשים","price":"1,000 ין"},
  {"lat":34.4438,"lng":133.9956,"nameHe":"מוזיאון צ'יצ'ו לאמנות","nameEn":"Chichu Art Museum","architect":"Tadao Ando","archGroup":"ando","year":2004,"region":"kansai","day":6,"desc":"מוזיאון תת-קרקעי, מואר באור טבעי. מונה, טורל, דה-מריה.","address":"3449-1 Naoshima, Kagawa","hours":"10:00–18:00","price":"2,100 ין"},
  {"lat":34.4420,"lng":133.9970,"nameHe":"בנסה האוס","nameEn":"Benesse House Museum","architect":"Tadao Ando","archGroup":"ando","year":1992,"region":"kansai","day":6,"desc":"מוזיאון-מלון. משלב אמנות בטבע ובבטון חשוף.","address":"Gotanji, Naoshima, Kagawa","hours":"08:00–21:00","price":"1,050 ין"},
  {"lat":34.3915,"lng":132.4536,"nameHe":"מוזיאון השלום הירושימה","nameEn":"Hiroshima Peace Memorial Museum","architect":"Kenzo Tange","archGroup":"tange","year":1955,"region":"kansai","day":7,"desc":"אנדרטת השלום. אבן דרך של האדריכלות היפנית המודרנית.","address":"1-2 Nakajimacho, Naka-ku, Hiroshima","hours":"08:30–18:00","price":"200 ין"},
  {"lat":43.0614,"lng":142.6317,"nameHe":"כנסייה על המים","nameEn":"Church on the Water","architect":"Tadao Ando","archGroup":"ando","year":1988,"region":"hokkaido","day":14,"desc":"צלב על בריכת מים, קיר נפתח אל הטבע. שקט מוחלט.","address":"Nakatomamu, Shimukappu, Hokkaido","hours":"בתיאום מראש","price":"חינם למתארחים"},
  {"lat":42.9717,"lng":141.3100,"nameHe":"גבעת הבודהה","nameEn":"Hill of the Buddha","architect":"Tadao Ando","archGroup":"ando","year":2015,"region":"hokkaido","day":16,"desc":"בודהה 13.5 מטר בתוך גבעת לבנדר. מנהרת בטון של 40 מטר.","address":"2 Takino, Minami-ku, Sapporo","hours":"09:00–16:00","price":"חינם"},
  {"lat":35.6580,"lng":139.7016,"nameHe":"שיבויה סקיי","nameEn":"Shibuya Scramble Square","architect":"Kengo Kuma (שותף)","archGroup":"kuma","year":2019,"region":"tokyo","day":17,"desc":"תצפית 230 מטר, גג פתוח מעל צומת שיבויה","address":"2-24-12 Shibuya, Shibuya-ku, Tokyo","hours":"10:00–22:30","price":"2,000 ין"},
  {"lat":35.6627,"lng":139.7121,"nameHe":"פראדה אומוטסאנדו","nameEn":"Prada Omotesando","architect":"Herzog & de Meuron","archGroup":"other","year":2003,"region":"tokyo","day":18,"desc":"חנות מזכוכית מעוינים","address":"5-2-6 Minamiaoyama, Minato-ku, Tokyo","hours":"11:00–20:00","price":"חינם"},
  {"lat":35.6648,"lng":139.7108,"nameHe":"דיור אומוטסאנדו","nameEn":"Dior Omotesando","architect":"SANAA","archGroup":"sanaa","year":2003,"region":"tokyo","day":18,"desc":"חזית זכוכית שקופה — שכבות אקריליק מרחפות","address":"5-9-11 Jingumae, Shibuya-ku, Tokyo","hours":"11:00–20:00","price":"חינם"},
  {"lat":35.6632,"lng":139.7122,"nameHe":"טודס אומוטסאנדו","nameEn":"Tod's Omotesando","architect":"Toyo Ito","archGroup":"other","year":2004,"region":"tokyo","day":18,"desc":"קונסטרוקציית עץ-בטון בהשראת ענפי עץ","address":"5-1-5 Jingumae, Shibuya-ku, Tokyo","hours":"11:00–20:00","price":"חינם"},
  {"lat":35.6607,"lng":139.7189,"nameHe":"מוזיאון נזו","nameEn":"Nezu Museum","architect":"Kengo Kuma","archGroup":"kuma","year":2009,"region":"tokyo","day":18,"desc":"גשר במבוק, גן יפני, גג משופע מסורתי","address":"6-5-1 Minamiaoyama, Minato-ku, Tokyo","hours":"10:00–17:00","price":"1,300 ין"},
  {"lat":35.6647,"lng":139.7174,"nameHe":"סאני הילס","nameEn":"Sunny Hills","architect":"Kengo Kuma","archGroup":"kuma","year":2013,"region":"tokyo","day":18,"desc":"סבך עץ שזור בטכניקת ג'ינגלי-גומי יפנית. עוגות אננס.","address":"3-10-20 Minamiaoyama, Minato-ku, Tokyo","hours":"11:00–19:00","price":"חינם"},
  {"lat":35.6654,"lng":139.7306,"nameHe":"21_21 Design Sight","nameEn":"21_21 Design Sight","architect":"Tadao Ando","archGroup":"ando","year":2007,"region":"tokyo","day":18,"desc":"מוזיאון עיצוב תת-קרקעי, בהשראת קפל בד","address":"9-7-6 Akasaka, Minato-ku, Tokyo","hours":"10:00–19:00","price":"1,400 ין"},
  {"lat":35.6441,"lng":139.6990,"nameHe":"סטארבקס ריזרב רוסטרי","nameEn":"Starbucks Reserve Roastery Nakameguro","architect":"Kengo Kuma","archGroup":"kuma","year":2019,"region":"tokyo","day":18,"desc":"תקרת אוריגמי, בר תה, מרפסת על תעלת נאקאמגורו","address":"2-19-23 Aobadai, Meguro-ku, Tokyo","hours":"07:00–23:00","price":"מחיר משקה"},
  {"lat":35.7112,"lng":139.7963,"nameHe":"מרכז מידע תיירותי אסאקוסה","nameEn":"Asakusa Culture Tourist Info Center","architect":"Kengo Kuma","archGroup":"kuma","year":2012,"region":"tokyo","day":19,"desc":"7 מרפסות מקופלות. תצפית חינם על אסאקוסה.","address":"2-18-9 Kaminarimon, Taito-ku, Tokyo","hours":"09:00–20:00","price":"חינם"},
  {"lat":35.6963,"lng":139.8048,"nameHe":"מוזיאון הוקוסאי סומידה","nameEn":"Sumida Hokusai Museum","architect":"SANAA (Kazuyo Sejima)","archGroup":"sanaa","year":2016,"region":"tokyo","day":19,"desc":"קוביית אלומיניום בין סדקים. מוקדש לאמן הגלים היפני.","address":"2-7-2 Kamezawa, Sumida-ku, Tokyo","hours":"09:30–17:30","price":"400 ין"}
]
